<?xml version="1.0" encoding="UTF-8" standalone="no" ?>
<gpx xmlns="http://www.topografix.com/GPX/1/1" creator="MapSource 6.16.3" version="1.1" xmlns:xsi="http://www.w3.org/2001/XMLSchema-instance" xsi:schemaLocation="http://www.topografix.com/GPX/1/1 http://www.topografix.com/GPX/1/1/gpx.xsd">

  <metadata>
    <link href="http://www.garmin.com">
      <text>Garmin International</text>
    </link>
    <time>2016-10-12T04:37:25Z</time>
    <bounds maxlat="46.00290996953845" maxlon="-74.950670041143894" minlat="45.979840038344264" minlon="-74.963880004361272"/>
  </metadata>

  <trk>
    <name>Hetier Nord</name>
    <trkseg>
      <trkpt lat="46.002869987860322" lon="-74.954889994114637"/>
      <trkpt lat="46.00290996953845" lon="-74.951839987188578"/>
      <trkpt lat="46.00290996953845" lon="-74.95150001719594"/>
    </trkseg>
  </trk>

  <trk>
    <name>Hetier Sud</name>
    <trkseg>
      <trkpt lat="45.988710019737482" lon="-74.954160014167428"/>
      <trkpt lat="45.98872996866703" lon="-74.951089974492788"/>
      <trkpt lat="45.98872996866703" lon="-74.950810018926859"/>
      <trkpt lat="45.98872996866703" lon="-74.950750004500151"/>
    </trkseg>
  </trk>

  <trk>
    <name>Hetier/Grand Pere</name>
    <trkseg>
      <trkpt lat="46.00290996953845" lon="-74.95150001719594"/>
      <trkpt lat="46.002630013972521" lon="-74.95147998444736"/>
      <trkpt lat="46.002630013972521" lon="-74.95150001719594"/>
      <trkpt lat="46.002630013972521" lon="-74.951519966125488"/>
      <trkpt lat="46.002649962902069" lon="-74.951519966125488"/>
      <trkpt lat="46.002649962902069" lon="-74.951539998874068"/>
      <trkpt lat="46.002669995650649" lon="-74.951539998874068"/>
      <trkpt lat="46.002669995650649" lon="-74.951560031622648"/>
      <trkpt lat="46.002700002864003" lon="-74.951560031622648"/>
      <trkpt lat="46.002700002864003" lon="-74.951579980552197"/>
      <trkpt lat="46.002700002864003" lon="-74.951609987765551"/>
      <trkpt lat="46.002700002864003" lon="-74.951630020514131"/>
      <trkpt lat="46.002700002864003" lon="-74.951649969443679"/>
      <trkpt lat="46.002700002864003" lon="-74.951670002192259"/>
      <trkpt lat="46.002700002864003" lon="-74.951690034940839"/>
      <trkpt lat="46.002700002864003" lon="-74.951709983870387"/>
      <trkpt lat="46.002669995650649" lon="-74.951709983870387"/>
      <trkpt lat="46.002669995650649" lon="-74.951730016618967"/>
      <trkpt lat="46.002649962902069" lon="-74.951730016618967"/>
      <trkpt lat="46.002649962902069" lon="-74.951760023832321"/>
      <trkpt lat="46.002630013972521" lon="-74.951760023832321"/>
      <trkpt lat="46.002609981223941" lon="-74.951760023832321"/>
      <trkpt lat="46.00247997790575" lon="-74.951730016618967"/>
      <trkpt lat="46.00250001065433" lon="-74.951609987765551"/>
      <trkpt lat="46.00250001065433" lon="-74.951560031622648"/>
      <trkpt lat="46.002519959583879" lon="-74.95147998444736"/>
      <trkpt lat="45.98872996866703" lon="-74.950750004500151"/>
    </trkseg>
  </trk>

  <trk>
    <name>Lot 20/21</name>
    <trkseg>
      <trkpt lat="45.988680012524128" lon="-74.957529958337545"/>
      <trkpt lat="46.002850038930774" lon="-74.958279971033335"/>
    </trkseg>
  </trk>

  <trk>
    <name>Lot 20/Couronne</name>
    <trkseg>
      <trkpt lat="46.00279999896884" lon="-74.962140005081892"/>
      <trkpt lat="45.988659979775548" lon="-74.961389992386103"/>
    </trkseg>
  </trk>

  <trk>
    <name>Lot20  nord</name>
    <trkseg>
      <trkpt lat="46.00279999896884" lon="-74.962140005081892"/>
      <trkpt lat="46.002850038930774" lon="-74.958279971033335"/>
    </trkseg>
  </trk>

  <trk>
    <name>Lot20 Sud</name>
    <trkseg>
      <trkpt lat="45.988659979775548" lon="-74.961389992386103"/>
      <trkpt lat="45.988659979775548" lon="-74.960379973053932"/>
      <trkpt lat="45.988680012524128" lon="-74.957849979400635"/>
      <trkpt lat="45.988680012524128" lon="-74.957529958337545"/>
    </trkseg>
  </trk>

  <trk>
    <name>Lot21 Nord</name>
    <trkseg>
      <trkpt lat="46.002850038930774" lon="-74.958279971033335"/>
      <trkpt lat="46.002869987860322" lon="-74.954889994114637"/>
    </trkseg>
  </trk>

  <trk>
    <name>Lot21 Sud</name>
    <trkseg>
      <trkpt lat="45.988680012524128" lon="-74.957529958337545"/>
      <trkpt lat="45.988680012524128" lon="-74.957310017198324"/>
      <trkpt lat="45.988710019737482" lon="-74.954480035230517"/>
      <trkpt lat="45.988710019737482" lon="-74.954199995845556"/>
      <trkpt lat="45.988710019737482" lon="-74.954160014167428"/>
    </trkseg>
  </trk>

  <trk>
    <name>Lot21/Hetier</name>
    <trkseg>
      <trkpt lat="46.002869987860322" lon="-74.954889994114637"/>
      <trkpt lat="45.988710019737482" lon="-74.954160014167428"/>
    </trkseg>
  </trk>

  <trk>
    <name>Track_1</name>
    <trkseg>
      <trkpt lat="45.988680012524128" lon="-74.963750001043081"/>
      <trkpt lat="45.979840038344264" lon="-74.963880004361272"/>
    </trkseg>
  </trk>

  <trk>
    <name>Track_2</name>
    <trkseg>
      <trkpt lat="45.988680012524128" lon="-74.957310017198324"/>
      <trkpt lat="45.979840038344264" lon="-74.957289984449744"/>
    </trkseg>
  </trk>

  <trk>
    <name>Track_3</name>
    <trkseg>
      <trkpt lat="45.98872996866703" lon="-74.950810018926859"/>
      <trkpt lat="45.979840038344264" lon="-74.950670041143894"/>
    </trkseg>
  </trk>

  <trk>
    <name>Track_4</name>
    <trkseg>
      <trkpt lat="45.988680012524128" lon="-74.963750001043081"/>
      <trkpt lat="45.988659979775548" lon="-74.961389992386103"/>
    </trkseg>
  </trk>

  <trk>
    <name>Track_5</name>
    <trkseg>
      <trkpt lat="45.979840038344264" lon="-74.954030010849237"/>
      <trkpt lat="45.988710019737482" lon="-74.954199995845556"/>
    </trkseg>
  </trk>

  <trk>
    <name>Track_6</name>
    <trkseg>
      <trkpt lat="45.979840038344264" lon="-74.960509976372123"/>
      <trkpt lat="45.988659979775548" lon="-74.960379973053932"/>
    </trkseg>
  </trk>

</gpx>
